city,street_address,zip,owner_id,guest_limit,price_per_night,latitude,longitude
Manhattan,459 WEST 35TH STREET 5W                 ,10001,60,3,397,40.7551405,-73.99812670000001
Manhattan,1420 BROADWAY                            ,10018,128,4,550,40.7538902,-73.9867112
Manhattan,303 GREENWICH STREET                     ,10013,37,0,718,40.71643299999999,-74.0106306
Manhattan,138 WEST 17TH STREET PH                 ,10011,120,5,757,40.7830603,-73.9712488
Manhattan,200 WEST 109 STREET                      ,10025,276,2,29,40.802392,-73.96474599999999
Manhattan,102 WEST 57TH STREET                     ,10019,270,6,182,40.764325,-73.977931
Manhattan,94-102 HAMILTON PLACE 102               ,10031,52,0,169,40.8235752,-73.949986
Manhattan,214 EAST 121 STREET                      ,10035,216,8,121,40.800726,-73.93721699999999
Manhattan,100 WEST 39TH   STREET                   ,10018,273,7,784,40.7529669,-73.9859543
Manhattan,133 ESSEX STREET                         ,10002,57,8,953,40.7202075,-73.9876239
Manhattan,845 WEST END AVENUE                      ,10025,269,2,374,40.79868889999999,-73.9710836
Manhattan,212 EAST 48TH STREET 1B                 ,10017,282,0,486,40.754053,-73.971043
Manhattan,58 WEST 105TH STREET 4A                 ,10025,192,5,824,40.79806,-73.96276
Manhattan,73 FIFTH AVENUE 5B                      ,10003,121,1,643,40.7367004,-73.99281069999999
Manhattan,330 WEST 88TH   STREET                   ,10024,1,1,721,40.790555,-73.978366
Manhattan,1335 AVENUE OF THE AMERIC                ,10019,65,4,275,40.7622666,-73.9787245
Manhattan,158 HESTER STREET                        ,10013,233,0,340,40.7176062,-73.9968787
Manhattan,102 WEST 57TH STREET                     ,10019,3,1,510,40.764325,-73.977931
Manhattan,186 EAST 111 STREET 1                   ,10029,170,8,893,40.794747,-73.94292399999999
Manhattan,454 WEST 25TH   STREET                   ,10001,173,3,464,40.74853,-74.002757
Manhattan,23 WEST 116 STREET                       ,10026,279,9,489,40.8011878,-73.9476538
Manhattan,330 EAST 49TH STREET                     ,10017,233,3,559,40.753586,-73.967902
Manhattan,39 GRAMERCY PARK NORTH 9A               ,10010,233,0,177,40.737901,-73.98433899999999
Manhattan,30 BOND STREET 4 FL                     ,10012,203,9,615,40.7830603,-73.9712488
Manhattan,41 SPRING STREET                         ,10012,126,4,162,40.7219678,-73.9959287
Manhattan,870 7 AVENUE                             ,10019,269,5,519,40.76466,-73.9809679
Manhattan,1192 PARK AVENUE 7A                     ,10128,136,0,413,40.785229,-73.9539772
Manhattan,211 EAST 13TH STREET                     ,10003,157,9,466,40.7323623,-73.9871248
Manhattan,455 CENTRAL PARK WEST                    ,10025,282,9,666,40.7977619,-73.96073919999999
Manhattan,1335 AVENUE OF THE AMERIC                ,10019,172,3,454,40.7622666,-73.9787245
Manhattan,232 EAST 6TH STREET 3E                  ,10003,116,4,537,40.727485,-73.989327
Manhattan,1335 AVENUE OF THE AMERIC                ,10019,170,0,407,40.7622666,-73.9787245
Manhattan,330 EAST 38TH   STREET                   ,10016,121,5,103,40.7463583,-73.9725287
Manhattan,401 EAST 60TH STREET                     ,10022,86,4,327,40.7602757,-73.9609519
Manhattan,102 WEST 57TH   STREET                   ,10019,130,2,798,40.764325,-73.977931
Manhattan,1335 AVENUE OF THE AMER                  ,10019,176,1,174,40.7622666,-73.9787245
Manhattan,300 EAST 55TH   STREET                   ,10022,144,0,600,40.757719,-73.96609000000001
Manhattan,153 WEST 121ST STREET                    ,10027,96,5,830,40.806291,-73.949332
Manhattan,14 EAST 90TH STREET 8E                  ,10128,22,0,198,40.7834752,-73.9575176
Manhattan,40 SUTTON PLACE                          ,10022,161,9,132,40.758529,-73.960155
Manhattan,1335 AVENUE OF THE AMERIC                ,10019,79,6,921,40.7622666,-73.9787245
Manhattan,406 EAST 50TH   STREET                   ,10022,213,8,281,40.753537,-73.96591099999999
Manhattan,1335 AVENUE OF THE AMERIC                ,10019,22,0,216,40.7622666,-73.9787245
Manhattan,155 EAST 38TH STREET                     ,10016,248,4,490,40.748593,-73.9764921
Manhattan,7 WEST 123 STREET                        ,10027,219,6,619,40.806223,-73.9452529
Manhattan,51 WEST 81ST STREET 3G                  ,10024,112,1,226,40.783287,-73.97412299999999
Manhattan,515 WEST 173RD STREET                    ,10032,223,4,671,40.843417,-73.935143
Manhattan,133 WEST 22ND STREET                     ,10011,23,3,26,40.7429739,-73.994468
Manhattan,93 WORTH STREET                          ,10013,193,2,330,40.7165872,-74.00480639999999
Manhattan,90 WILLIAM STREET                        ,10038,284,8,225,40.7081095,-74.0075488
Manhattan,1619 3 AVENUE                            ,10128,16,7,747,40.7814033,-73.9507115
Manhattan,107 WEST 86TH 7B                        ,10024,26,2,870,40.7869181,-73.97254989999999
Manhattan,350 W 53RD STREET                        ,10019,285,4,795,40.7648322,-73.986874
Manhattan,321 CATHEDRAL PARKWAY                    ,10026,172,3,895,40.801144,-73.9593965
Manhattan,180 WEST END AVENUE 10S                 ,10023,23,8,842,40.77747249999999,-73.9856377
Manhattan,50 FRANKLIN STREET                       ,10013,197,2,27,40.717182,-74.00259299999999
Manhattan,505 GREENWICH STREET                     ,10013,114,1,491,40.7255448,-74.0089706
Manhattan,425 EAST 79TH STREET 7A                 ,10075,276,6,101,40.7719536,-73.9512975
Manhattan,980 FIFTH AVENUE 21A                    ,10075,112,7,585,40.7770303,-73.96316019999999
Manhattan,19 WEST 9TH STREET 1F                   ,10011,145,9,40,40.73342590000001,-73.9970163
Manhattan,404 EAST 66TH   STREET                   ,10065,283,3,754,40.7635646,-73.95810349999999
Manhattan,65 WEST 95TH STREET 1D                  ,10025,169,8,810,40.7920097,-73.967263
Manhattan,1 MORTON SQUARE                          ,10014,290,8,161,40.7309933,-74.01010840000001
Manhattan,555 WEST 59TH STREET                     ,10019,104,0,118,40.7714442,-73.9894047
Manhattan,345 WEST 14TH   STREET                   ,10014,74,3,835,40.74088,-74.004434
Manhattan,27 WEST 19TH   STREET                    ,10011,195,3,694,40.7398258,-73.9928297
Manhattan,215 PARK ROW 21G                        ,10038,143,7,94,40.7127421,-73.9993575
Manhattan,528 9 AVENUE                             ,10018,104,9,101,39.1840274,-96.5699643
Manhattan,211 EAST 13TH   STREET                   ,10003,102,3,538,40.7323623,-73.9871248
Manhattan,221 EAST 50TH   STREET 1E               ,10022,207,4,551,40.755671,-73.96979390000001
Manhattan,15 WEST 53RD   STREET                    ,10019,40,3,19,40.7612038,-73.97730539999999
Manhattan,422 EAST 72ND   STREET                   ,10021,90,1,345,40.7667795,-73.9550512
Manhattan,401 EAST 74TH STREET 19S                ,10021,210,9,627,40.7690765,-73.9546283
Manhattan,350 WEST 50TH STREET                     ,10019,125,0,416,40.7628948,-73.98807470000001
Manhattan,330 EAST 38TH   STREET                   ,10016,135,1,622,40.7463583,-73.9725287
Manhattan,322 WEST 57TH   STREET                   ,10019,254,9,211,40.7669625,-73.98406059999999
Manhattan,1461 1 AVENUE 15J                       ,10075,261,2,291,40.7707716,-73.95414439999999
Manhattan,456-464 WEST 18TH STREET                 ,10011,224,1,369,40.7444097,-74.0060319
Manhattan,157 WEST 57TH   STREET                   ,10019,139,3,587,40.7654184,-73.9791558
Manhattan,1335 AVENUE OF THE AMERIC                ,10019,51,9,171,40.7622666,-73.9787245
Manhattan,102 WEST 57TH STREET                     ,10019,228,9,524,40.764325,-73.977931
Manhattan,622 WEST 114TH STREET 22                ,10025,176,6,341,40.80699,-73.966129
Manhattan,1 IRVING PLACE                           ,10003,77,6,880,40.7348753,-73.9892251
Manhattan,36 WEST 44TH   STREET                    ,10036,271,9,173,40.7553282,-73.9819107
Manhattan,155 ALLEN STREET                         ,10002,114,8,213,40.720986,-73.989901
Manhattan,332 WEST 19TH STREET PHA                ,10011,271,8,231,40.7830603,-73.9712488
Manhattan,350 WEST 50TH   STREET                   ,10019,298,0,233,40.7628948,-73.98807470000001
Manhattan,25 CENTRAL PARK WEST                     ,10023,242,5,583,40.7702862,-73.9806629
Manhattan,23 WEST 116TH STREET                     ,10026,291,1,384,40.8011878,-73.9476538
Manhattan,345 EAST 81ST STREET 6C                 ,10028,176,4,570,40.7741007,-73.95218559999999
Manhattan,140 EAST 28TH STREET 11A                ,10016,48,6,254,40.74215700000001,-73.981912
Manhattan,333 EAST 68TH STREET 7F                 ,10065,131,9,878,40.765956,-73.958884
Manhattan,115 CENTRAL PARK WEST 9F                ,10023,159,8,227,40.7758882,-73.9764703
Manhattan,5 TUDOR CITY PLACE 1912                 ,10017,58,3,256,40.7479425,-73.9709596
Manhattan,20 WEST 72ND STREET 1210                ,10023,216,9,866,40.77653,-73.977468
Manhattan,22 PECK SLIP                             ,10038,232,7,470,40.7080776,-74.002102
Manhattan,526 EAST 5TH STREET                      ,10009,159,4,197,40.724142,-73.98328900000001
Manhattan,101 LEONARD                              ,10013,66,1,625,40.7168487,-74.0039187
Manhattan,357 WEST 29TH STREET 4B                 ,10001,245,2,92,40.7501348,-73.998054
Manhattan,250 EAST 54TH STREET                     ,10022,59,6,376,40.757383,-73.967264
Manhattan,151-155 EAST 86TH   STREET               ,10028,183,4,179,40.7794402,-73.9549333
Manhattan,1420 YORK AVENUE                         ,10021,141,4,789,40.7690283,-73.951776
Manhattan,520 EAST 76TH   STREET                   ,10021,85,8,727,40.7687884,-73.9508772
Manhattan,2 GROVE STREET 4E                       ,10014,232,9,736,40.732252,-74.006109
Manhattan,1335 AVENUE OF THE AMERIC                ,10019,155,1,618,40.7622666,-73.9787245
Manhattan,453 CONVENT AVENUE                       ,10031,125,3,17,40.827515,-73.943862
Manhattan,102 WEST 57TH                            ,10019,230,6,207,40.764325,-73.977931
Manhattan,30 BOGARDUS PLACE 4G                    ,10040,3,4,805,40.859415,-73.929008
Manhattan,295 WEST 11TH ST 2L                     ,10014,132,6,547,40.7360727,-74.00561019999999
Manhattan,1335 AVENUE OF THE AMER                  ,10019,13,7,922,40.7622666,-73.9787245
Manhattan,392 CENTRAL PARK WEST                    ,10025,104,1,774,40.794725,-73.965279
Manhattan,739 WEST END AVENUE                      ,10025,141,8,577,40.7956485,-73.9735091
Manhattan,432 WEST 52ND   STREET                   ,10019,200,2,917,40.7653496,-73.98952899999999
Manhattan,2681 BROADWAY 10C                       ,10025,201,3,403,40.7987484,-73.9692328
Manhattan,37 WARREN STREET                         ,10007,72,6,812,40.7142858,-74.0087434
Manhattan,390 RIVERSIDE DRIVE 10G                 ,10025,207,4,25,40.805528,-73.967302
Manhattan,31 WEST 21ST STREET                      ,10010,220,3,555,40.7411152,-73.9921992
Manhattan,445 EAST 86TH STREET 3A                 ,10028,76,8,550,40.7763469,-73.94766849999999
Manhattan,205 EAST 16TH   STREET                   ,10003,96,9,536,40.73446029999999,-73.9858161
Manhattan,102 W 57TH STREET                        ,10019,272,4,330,40.764325,-73.977931
Manhattan,520 WEST 45TH   STREET                   ,10036,152,5,700,40.7618255,-73.99517639999999
Manhattan,198/200/202 2 AVENUE                     ,10003,88,0,103,40.7311278,-73.9853684
Manhattan,1335 AVENUE OF THE AMER                  ,10019,112,3,457,40.7622666,-73.9787245
Manhattan,409 EDGECOMBE AVENUE 4I                 ,10031,64,1,766,40.829362,-73.940078
Manhattan,325 LEXINGTON AVE                        ,10016,245,8,354,40.749163,-73.97739399999999
Manhattan,111 WEST 67TH   STREET                   ,10023,179,9,58,40.774532,-73.9817875
Manhattan,2112 BROADWAY                            ,10023,289,5,111,40.7799459,-73.98127210000001
Manhattan,15 WILLIAM STREET                        ,10004,19,6,616,40.7053263,-74.01027239999999
Manhattan,220 EAST 65TH STREET                     ,10065,274,0,255,40.764384,-73.962774
Manhattan,687 WEST 204TH STREET 1G                ,10034,225,7,948,40.8681038,-73.92356269999999
Manhattan,205 EAST 45TH   STREET                   ,10017,52,7,433,40.75269369999999,-73.9724398
Manhattan,220 EAST 65TH STREET                     ,10065,86,3,102,40.764384,-73.962774
Manhattan,327 WEST 85TH STREET 3A                 ,10024,74,1,137,40.788808,-73.979192
Manhattan,15 WEST 67TH STREET 8REW                ,10023,207,3,853,40.7830603,-73.9712488
Manhattan,1335 AVENUE OF THE AMERIC                ,10019,195,0,443,40.7622666,-73.9787245
Manhattan,1335 AVENUE OF THE AMERIC                ,10019,204,2,450,40.7622666,-73.9787245
Manhattan,109 WEST 82ND STREET 4D                 ,10024,226,8,70,40.7843583,-73.9745973
Manhattan,234 WEST 148 STREET                      ,10039,68,3,773,40.8242714,-73.93968210000001
Manhattan,319 EAST 50TH   STREET COOP             ,10022,249,2,408,40.7830603,-73.9712488
Manhattan,500A EAST 87TH   STREET                  ,10128,211,9,725,40.77648689999999,-73.9463756
Manhattan,161 WEST 75TH   STREET 7J               ,10023,36,6,667,40.780544,-73.97981399999999
Manhattan,241 EAST 7TH STREET 3B                  ,10009,116,5,717,40.7240253,-73.97822339999999
Manhattan,306 WEST 56TH   STREET 11C              ,10019,136,4,834,40.76614199999999,-73.9841749
Manhattan,249 EAST 48TH   STREET                   ,10017,16,6,646,40.7538434,-73.9698092
Manhattan,400 EAST 67TH   STREET                   ,10065,219,8,146,40.7643329,-73.9582013
Manhattan,530 GRAND STREET FGA                    ,10002,132,0,359,40.7830603,-73.9712488
Manhattan,120 GREENWICH STREET                     ,10006,41,2,867,40.7090409,-74.01331669999999
Manhattan,210 LAFAYETTE STREET                     ,10012,124,7,527,40.7217305,-73.99806029999999
Manhattan,100 WEST 57TH STREET 4M                 ,10019,298,0,700,40.7641922,-73.9776198
Manhattan,13 EAST 30TH   STREET                    ,10016,190,2,853,40.7457232,-73.9853444
Manhattan,190 BOWERY                               ,10012,84,4,708,40.7211939,-73.994084
Manhattan,15 CHARLES STREET                        ,10014,134,1,559,40.7352797,-74.0012674
Manhattan,102 WEST 57TH STREET                     ,10019,236,5,463,40.764325,-73.977931
Manhattan,376 BLEECKER STREET                      ,10014,187,6,345,40.7349519,-74.00503379999999
Manhattan,444 CENTRAL PARK WEST 6H                ,10025,269,9,487,40.7970159,-73.9611996
Manhattan,205 WEST END AVENUE 6K                  ,10023,61,5,183,40.778302,-73.98592920000002
Manhattan,1 CENTRAL PARK WEST                      ,10023,129,6,335,40.7690691,-73.9815601
Manhattan,46 WEST 86TH   STREET                    ,10024,279,1,62,40.785956,-73.97166299999999
Manhattan,633 THIRD AVENUE                         ,10017,274,4,636,40.7496874,-73.974661
Manhattan,502 PARK AVENUE                          ,10022,232,0,207,40.7633071,-73.9701458
Manhattan,152 WEST 49TH   STREET                   ,10019,215,9,902,40.760053,-73.98330790000001
Manhattan,210 WEST 78TH STREET 2A                 ,10024,269,2,782,40.782517,-73.979551
Manhattan,102 WEST 57TH ST                         ,10019,253,0,75,40.764325,-73.977931
Manhattan,1000-4 SIXTH AVENUE                      ,10018,36,5,331,40.7191137,-74.005164
Manhattan,1 FIFTH AVENUE 27A                      ,10003,238,8,111,40.7319594,-73.9962275
Manhattan,415 EAST 52ND STREET 4-H                ,10022,103,6,499,40.7552433,-73.9642032
Manhattan,350 WEST 24TH STREET 13F                ,10011,289,5,810,40.7467095,-74.0006054
Manhattan,280 PARK AVENUE SOUTH                    ,10010,292,9,110,40.73944890000001,-73.98720589999999
Manhattan,520 EAST 72ND  STREET 11M               ,10021,268,9,824,40.7661178,-73.9527062
Manhattan,817 WEST END AVE                         ,10025,6,3,167,40.7977384,-73.97163429999999
Manhattan,215 EAST 73RD STREET 9A                 ,10021,150,5,591,40.7701885,-73.9589675
Manhattan,102 WEST 57TH   STREET                   ,10019,131,5,805,40.764325,-73.977931
Manhattan,345 RIVERSIDE DRIVE 1G                  ,10025,221,9,275,40.802633,-73.96941699999999
Manhattan,1335 AVENUE OF THE AMER                  ,10019,206,9,931,40.7622666,-73.9787245
Manhattan,167 WEST 73RD STREET 10                 ,10023,92,4,406,40.7792011,-73.98042939999999
Manhattan,352 WEST 117 STREET                      ,10026,121,0,586,40.80576689999999,-73.95672549999999
Manhattan,PRINCE STREET                            ,10012,241,2,196,40.724329,-73.99770199999999
Manhattan,307 CANAL STREET                         ,10013,17,2,78,40.7200431,-74.0021099
Manhattan,1335 AVENUE OF THE AMERIC                ,10019,206,1,373,40.7622666,-73.9787245
Manhattan,27 LEONARD STREET                        ,10013,98,5,770,40.718666,-74.007437
Manhattan,401 EAST 84TH   STREET                   ,10028,138,1,65,40.7755553,-73.9501066
Manhattan,1335 AVENUE OF THE AMERIC                ,10019,165,4,267,40.7622666,-73.9787245
Manhattan,227 EAST 7TH STREET                      ,10009,252,6,113,40.724411,-73.979075
Manhattan,519 EAST 86TH STREET 2E 2F              ,10028,121,5,912,40.7757453,-73.94628159999999
Manhattan,808 LEXINGTON AVENUE                     ,10065,140,4,16,40.7644049,-73.96692399999999
Manhattan,1335 AVENUE OF THE AMER                  ,10019,298,3,903,40.7622666,-73.9787245
Manhattan,28 HUBERT STREET 3                      ,10013,124,5,828,40.721641,-74.0103294
Manhattan,300 RIVERSIDE DRIVE 6H                  ,10025,49,6,700,40.7996405,-73.97158569999999
Manhattan,71 SULLIVAN STREET 4C                   ,10012,90,7,380,40.724399,-74.00377999999999
Manhattan,92 PERRY STREET                          ,10014,271,1,106,40.7351397,-74.0051671
Manhattan,575 RIVERSIDE DRIVE 35                  ,10031,71,9,939,40.820758,-73.957757
Manhattan,252 WEST 74TH STREET                     ,10023,51,5,726,40.78079,-73.9831171
Manhattan,130 EAST 42ND   STREET                   ,10017,281,5,475,40.75142109999999,-73.976041
Manhattan,1335 AVENUE OF THE AMER                  ,10019,185,5,768,40.7622666,-73.9787245
Manhattan,355 8TH AVENUE 14E                      ,10001,105,2,916,40.7481388,-73.9969469
Manhattan,515 WEST 23RD   STREET                   ,10011,229,4,201,40.7481775,-74.0046693
Manhattan,300 EAST 71ST STREET 17D                ,10021,270,1,519,40.7678724,-73.95863729999999
Manhattan,918 ST NICHOLAS AVENUE                   ,10032,14,0,269,40.831376,-73.940871
Manhattan,220 RIVERSIDE BLVD                       ,10069,234,0,297,40.7797171,-73.9876508
Manhattan,1940 1 AVENUE                            ,10029,181,3,188,40.785869,-73.941923
Manhattan,170 JOHN STREET                          ,10038,57,1,18,40.7059326,-74.00425229999999
Manhattan,315 EAST 65TH STREET 9D                 ,10065,52,1,13,40.764197,-73.960624
Manhattan,402 EAST 74TH STREET 1C                 ,10021,190,0,819,40.768636,-73.95450799999999
Manhattan,230 EAST 79TH   STREET 5C               ,10075,239,9,11,40.7734949,-73.956176
Manhattan,207 EAST 29TH   STREET                   ,10016,260,1,924,40.7425281,-73.9796226
Manhattan,160 EAST 22ND   STREET                   ,10010,66,5,888,40.7383123,-73.98405919999999
Manhattan,420 EAST 72ND STREET 12J                ,10021,273,1,61,40.76721,-73.9553509
Manhattan,240 EAST 32ND   STREET                   ,10016,222,2,731,40.743613,-73.977684
Manhattan,225 WEST 60TH STREET                     ,10023,1,0,46,40.7715975,-73.9881474
Manhattan,588 WEST END AVENUE 4A                  ,10024,88,6,301,40.7904012,-73.9763353
Manhattan,311 WEST 24TH STREET 7C                 ,10011,84,5,697,40.7470154,-73.99818119999999
Manhattan,1270 FIFTH AVENUE 4S                    ,10029,29,9,61,40.7956559,-73.9497176
Manhattan,137 RIVERSIDE DRIVE 6C                  ,10024,24,4,833,40.789568,-73.98023599999999
Manhattan,1 WALL STREET COURT                      ,10005,269,6,71,40.7259894,-73.96864029999999
Manhattan,1335 AVENUE OF THE AMERIC                ,10019,35,5,311,40.7622666,-73.9787245
Manhattan,102 WEST 57TH STREET                     ,10019,197,5,133,40.764325,-73.977931
Manhattan,300 RIVERSIDE DRIVE 6C                  ,10025,58,3,87,40.7996405,-73.97158569999999
Manhattan,303 WEST 66TH STREET 9-FW               ,10023,141,7,157,40.7830603,-73.9712488
Manhattan,200 EAST 66TH STREET                     ,10065,258,3,927,40.7654964,-73.9631442
Manhattan,240 EAST 79TH STREET 1C                 ,10075,180,5,574,40.773407,-73.955968
Manhattan,107 WEST 82ND   STREET RES.             ,10024,214,3,805,40.7830603,-73.9712488
Manhattan,160 WOOSTER STREET                       ,10012,280,7,198,40.726203,-73.99911
Manhattan,324 PEARL STREET                         ,10038,79,7,399,40.7089984,-74.0017996
Manhattan,334 WEST 86TH STREET 2B                 ,10024,56,1,642,40.7893589,-73.97969379999999
Manhattan,116 WEST 76 ST 5F                       ,10023,26,7,395,40.780122,-73.977813
Manhattan,300 EAST 59TH STREET 2306/              ,10022,69,4,620,40.7602859,-73.9640752
Manhattan,201 EAST 17TH STREET 2H                 ,10003,258,6,528,40.7352711,-73.98530230000001
Manhattan,102 WEST 57TH STREET                     ,10019,89,0,62,40.764325,-73.977931
Manhattan,303 EAST 33RD   STREET                   ,10016,75,3,177,40.7440559,-73.97575669999999
Manhattan,372 CENTRAL PARK WEST                    ,10025,51,8,191,40.7928698,-73.9646115
Manhattan,440 EAST 62ND STREET 8H                 ,10065,31,8,792,40.7604552,-73.9586834
Manhattan,304 EAST 65TH   STREET                   ,10065,196,6,382,40.764033,-73.961439
Manhattan,102 WEST 57TH STREET                     ,10019,42,5,493,40.764325,-73.977931
Manhattan,300 EAST 85TH STREET 1905               ,10028,93,6,905,40.7769143,-73.9520687
Manhattan,160 WEST 66TH STREET                     ,10023,267,4,165,40.77428190000001,-73.98417719999999
Manhattan,25 COLUMBUS CIRCLE                       ,10019,282,7,821,40.767898,-73.9835463
Manhattan,2321 ADAM C POWELL BLVD                  ,10030,241,6,154,40.816156,-73.942548
Manhattan,255 WEST 23RD STREET 6CW                ,10011,242,7,27,40.7830603,-73.9712488
Manhattan,301 EAST 48TH STREET 8G                 ,10017,24,9,361,40.75364889999999,-73.9690553
Manhattan,2 RIVER TERRACE                          ,10280,244,2,591,40.71546439999999,-74.0160502
Manhattan,200 EAST 65TH   STREET                   ,10065,80,8,97,40.7649552,-73.9634835
Manhattan,875 WEST END AVENUE 8G                  ,10025,183,1,925,40.7996688,-73.97032159999999
Manhattan,2094 FREDRICK DOUGLASS BL                ,10026,2,4,151,40.8026239,-73.9564013
Manhattan,121 EAST 23RD   STREET                   ,10010,290,2,66,40.7400367,-73.9853668
Manhattan,239 WEST 52ND STREET                     ,10019,61,1,811,40.7632387,-73.9839434
Manhattan,231 EAST 43RD   STREET                   ,10017,283,0,113,40.750918,-73.97221789999999
Manhattan,250 EAST 30TH STREET                     ,10016,147,4,777,40.7422824,-73.97811109999999
Manhattan,200 EAST 90TH STREET 10B                ,10128,154,9,149,40.7810682,-73.9519127
Manhattan,227 EAST 7TH   STREET                    ,10009,295,6,233,40.724411,-73.979075
Manhattan,1890 ADAM CLAYTON POWELL                ,10026,232,5,595,40.8025645,-73.95364099999999
Manhattan,215 WEST 88TH STREET                     ,10024,115,6,239,40.7894893,-73.9749716
Manhattan,225 EAST 76TH STREET 1G                 ,10021,252,1,922,40.772008,-73.95732199999999
Manhattan,1335 AVENUE OF THE AMERIC                ,10019,252,8,641,40.7622666,-73.9787245
Manhattan,160 EAST 22ND   STREET                   ,10010,197,0,558,40.7383123,-73.98405919999999
Manhattan,124 THOMPSON STREET 5                   ,10012,230,0,635,40.7261453,-74.00135689999999
Manhattan,180 CABRINI BOULEVARD 108               ,10033,200,8,41,40.8540442,-73.93962119999999
Manhattan,201 EAST 66TH STREET 15C                ,10065,134,3,502,40.7658284,-73.962959
Manhattan,24 SPRING STREET                         ,10012,13,8,108,40.721311,-73.9952745
Manhattan,102 WEST 57TH ST                         ,10019,258,4,937,40.764325,-73.977931
Manhattan,1335 AVENUE OF THE AMERIC                ,10019,241,4,537,40.7622666,-73.9787245
Manhattan,96 ARDEN                                 ,10040,135,8,278,40.863934,-73.928794
Manhattan,170 WEST END AVENUE 18F/G               ,10023,138,5,194,40.7767224,-73.9845648
Manhattan,245 EAST 25TH STREET 8C                 ,10010,54,2,590,40.7394879,-73.9803273
Manhattan,16 AVENUE A                              ,10009,5,5,233,40.7226107,-73.9855972
Manhattan,572 GRAND STREET G1901                  ,10002,148,7,128,40.7138949,-73.9789042
Manhattan,102 WEST 57TH STREET                     ,10019,104,4,203,40.764325,-73.977931
Manhattan,393 WEST 49TH STREET                     ,10019,189,5,437,40.763013,-73.9882772
Manhattan,170 WEST END AVENUE 7EF                 ,10023,299,8,941,40.7830603,-73.9712488
Manhattan,15 WEST 53RD STREET                      ,10019,53,7,147,40.7612038,-73.97730539999999
Manhattan,211 EAST 13TH   STREET                   ,10003,13,0,20,40.7323623,-73.9871248
Manhattan,215 EAST 80TH   STREET                   ,10075,136,5,313,40.7746095,-73.9559621
Manhattan,27 WEST 72ND   STREET                    ,10023,222,4,409,40.7771108,-73.97761249999999
Manhattan,305 2 AVENUE                             ,10003,155,1,586,40.7346978,-73.9834558
Manhattan,205 WEST END AVENUE 27K                 ,10023,51,2,952,40.778302,-73.98592920000002
Manhattan,172 EAST 4TH STREET 7G                  ,10009,86,9,939,40.7243141,-73.9853384
Manhattan,515 EAST 85TH STREET 8B                 ,10028,69,9,885,40.775172,-73.946861
Manhattan,225 WEST 83RD   STREET                   ,10024,259,4,476,40.7863096,-73.9772584
Manhattan,208 EAST BROADWAY J 604                 ,10002,218,7,81,40.7108681,-74.0091075
Manhattan,120 CENTRAL PARK SOUTH 17B              ,10019,246,6,848,40.765836,-73.977383
Manhattan,301 EAST 63RD STREET 6-D                ,10065,149,7,104,40.763155,-73.9621841
Manhattan,500 GRAND STREET C8B                    ,10002,23,0,626,40.7830603,-73.9712488
Manhattan,54 WEST 16TH STREET 3D                  ,10011,256,9,862,40.7384516,-73.9955213
Manhattan,1335 AVENUE OF THE AMER                  ,10019,236,9,413,40.7622666,-73.9787245
Manhattan,244 MADISON AVENUE 14L                  ,10016,164,5,622,45.8553891,-111.3210907
Manhattan,114 MORNINGSIDE DRIVE 24                ,10027,148,1,536,40.81003,-73.95747
Manhattan,2271 SEVENTH AVENUE                      ,10030,86,9,619,40.8143655,-73.94425249999999
Manhattan,419 EAST 58TH   STREET 25H              ,10022,182,8,398,40.758797,-73.961027
Manhattan,150 WEST 26TH STREET                     ,10001,248,4,782,40.745468,-73.9933819
Manhattan,370 EAST 76TH STREET B908               ,10021,86,8,459,40.7704513,-73.9548752
Manhattan,212 WEST 85TH STREET 5E                 ,10024,277,6,831,40.78734499999999,-73.976545
Manhattan,870 7 AVENUE                             ,10019,66,6,883,40.76466,-73.9809679
Manhattan,640 WEST 139 STREET 66                  ,10031,8,7,731,40.8231525,-73.95501569999999
Manhattan,340 E 93RD. ST. 11K                     ,10128,111,4,927,40.7812626,-73.9467201
Manhattan,1335 AVENUE OF THE AMERIC                ,10019,268,4,718,40.7622666,-73.9787245
Manhattan,568 GRAND STREET J1402                  ,10002,192,2,319,40.71388590000001,-73.9790036
Brooklyn,198 16TH   STREET                        ,11215,22,7,777,40.664424,-73.988812
Brooklyn,422 KENT AVENUE                          ,11249,288,6,185,40.7098819,-73.9692517
Brooklyn,180 PROSPECT PARK SW 58                 ,11218,116,8,160,40.653217,-73.973568
Brooklyn,382 MAYFAIR DRIVE SOUTH                  ,11234,35,5,667,40.607885,-73.90541
Brooklyn,274 KOSCIUSZKO STREET                    ,11221,29,1,559,40.69125200000001,-73.94372299999999
Brooklyn,565 CARROLL STREET                       ,11215,244,9,48,40.6757988,-73.9829599
Brooklyn,4402-4404 13TH AVENUE                    ,11219,166,3,537,40.637882,-73.989587
Brooklyn,1515 WEST 4TH   STREET                   ,11204,24,3,826,40.6104604,-73.9780413
Brooklyn,588 EAST 88TH STREET                     ,11236,91,9,524,40.642375,-73.911295
Brooklyn,3903 AVENUE I                            ,11210,146,3,309,40.630092,-73.938433
Brooklyn,18 SPENCER PLACE                         ,11216,292,7,564,40.681435,-73.954803
Brooklyn,2845 CONEY ISLAND AVENUE                 ,11235,105,0,853,40.5870785,-73.96013409999999
Brooklyn,1277 DECATUR STREET                      ,11207,244,3,419,40.690668,-73.9060219
Brooklyn,7912 RIDGE BOULEVARD                     ,11209,20,5,500,40.628945,-74.032062
Brooklyn,358 COURT STREET                         ,11231,108,4,233,40.6820046,-73.996088
Brooklyn,2944 WEST 5TH STREET 13E                ,11224,278,8,625,40.5768029,-73.9728289
Brooklyn,2652 CROPSEY AVENUE 2C                  ,11214,191,6,62,40.58841950000001,-73.9909048
Brooklyn,1216-1224 PROSPECT AVENUE                ,11218,297,7,809,40.6532492,-73.9765565
Brooklyn,8806 COLONIAL ROAD                       ,11209,214,1,238,40.623185,-74.037367
Brooklyn,2814-16 WEST 35TH                        ,11224,208,7,476,40.576671,-74.001327
Brooklyn,702 FULTON STREET                        ,11217,18,9,553,40.6858611,-73.97391499999999
Brooklyn,70 KENT STREET                           ,11222,87,0,63,40.7305039,-73.9584465
Brooklyn,167 EAST 54TH STREET                     ,11203,178,7,320,40.654874,-73.9265269
Brooklyn,8642 16TH   AVENUE                       ,11214,268,0,239,40.609368,-74.00850299999999
Brooklyn,329 HERKIMER STREET                      ,11216,43,4,665,40.679457,-73.942425
Brooklyn,1967 WEST 13TH   STREET                  ,11223,11,2,740,40.598822,-73.984341
Brooklyn,522 EAST 29TH   STREET                   ,11210,74,5,921,40.6379779,-73.949478
Brooklyn,754 LINCOLN PLACE                        ,11216,92,2,692,40.67061,-73.9515569
Brooklyn,2630 CROPSEY AVENUE 8K                  ,11214,255,8,126,40.58931889999999,-73.99122609999999
Brooklyn,121 BAY 28TH   STREET                    ,11214,293,7,50,40.600109,-73.997755
Brooklyn,2951 OCEAN AVENUE 4G                    ,11235,230,2,129,40.589308,-73.949134
Brooklyn,173 28TH   AVENUE                        ,11214,269,9,38,40.586865,-73.987534
Brooklyn,350 OCEAN PARKWAY 5H                    ,11218,27,1,283,40.6406357,-73.97417879999999
Brooklyn,399 EAST 34TH   STREET                   ,11203,220,8,160,40.6471832,-73.94511229999999
Brooklyn,1319 JEFFERSON AVENUE                    ,11221,87,2,608,40.693299,-73.911654
Brooklyn,436 ASHFORD STREET                       ,11207,70,6,764,40.671508,-73.884775
Brooklyn,439 HICKS STREET                         ,11201,299,8,548,40.6876939,-73.9993552
Brooklyn,450 LOGAN STREET                         ,11208,191,8,601,40.675173,-73.87655699999999
Brooklyn,84 PRESIDENT STREET                      ,11231,57,5,426,40.68370669999999,-74.0037868
Brooklyn,440 KENT AVENUE                          ,11249,242,2,16,40.7091805,-73.96932629999999
Brooklyn,2755 KNAPP STREET                        ,11235,188,2,50,40.587075,-73.93099099999999
Brooklyn,115 LORIMER                              ,11206,254,2,304,40.7024345,-73.9506842
Brooklyn,106 ELLERY STREET                        ,11206,156,1,88,40.698163,-73.94897499999999
Brooklyn,483-501 HERKIMER STREET                  ,11213,184,0,647,40.679149,-73.936809
Brooklyn,48 76TH STREET                           ,11209,98,6,421,40.632237,-74.035515
Brooklyn,45 COLERIDGE STREET                      ,11235,47,5,731,40.580874,-73.950518
Brooklyn,968 ESSEX STREET                         ,11208,249,9,584,40.6604786,-73.8748408
Brooklyn,137 PATCHEN AVENUE                       ,11221,173,2,773,40.686898,-73.926547
Brooklyn,237 MACON STREET                         ,11216,53,9,125,40.6821709,-73.94194399999999
Brooklyn,1570 EAST 51ST   STREET                  ,11234,140,8,638,40.62213,-73.926497
Brooklyn,285 KINGSTON AVENUE                      ,11213,115,8,265,40.669973,-73.94188799999999
Brooklyn,40 CLINTON STREET 9B                    ,11201,8,4,714,40.6955286,-73.9920668
Brooklyn,185 HALL STREET 1708                    ,11205,151,7,431,40.692546,-73.96520199999999
Brooklyn,1873 86TH   STREET                       ,11214,119,6,662,40.60637699999999,-74.000642
Brooklyn,1629 ST JOHNS PLACE                      ,11233,37,3,660,40.67044,-73.923239
Brooklyn,900 LENOX ROAD                           ,11203,136,1,363,40.655341,-73.92652
Brooklyn,385 EAST 18 STREET 4J                   ,11226,219,4,76,40.64187,-73.961345
Brooklyn,270 5TH STREET 3B                       ,11215,55,4,569,38.6571962,-90.1664854
Brooklyn,236 PULASKI STREET                       ,11206,36,5,877,40.692964,-73.94198999999999
Brooklyn,296 DEGRAW STREET                        ,11231,229,6,436,40.6837343,-73.99569869999999
Brooklyn,577 5 STREET                             ,11215,264,6,794,38.6537476,-90.1644551
Brooklyn,15 OLIVER STREET 6C                     ,11209,54,5,490,31.0277391,-89.2396909
Brooklyn,239 MONITOR STREET                       ,11222,133,2,680,40.72732999999999,-73.9431479
Brooklyn,2028 STUART STREET                       ,11229,76,3,589,40.6048,-73.937527
Brooklyn,177 LEWIS AVENUE                         ,11221,253,5,733,40.690605,-73.93626499999999
Brooklyn,841-5 UNION STREET                       ,11215,137,9,652,42.8460362,-89.3042153
Brooklyn,1537 EAST 98 STREET                      ,11236,162,8,232,40.636068,-73.890267
Brooklyn,1041 CARROLL ST                          ,11225,11,0,439,40.667738,-73.955291
Brooklyn,8118 3 AVENUE                            ,11209,189,1,118,40.62660899999999,-74.0300819
Brooklyn,577 HENDRIX STREET                       ,11207,81,8,897,40.667581,-73.887801
Brooklyn,120 EUCLID AVENUE                        ,11208,262,0,801,40.685636,-73.875114
Brooklyn,245 HENRY STREET 6C                     ,11201,30,9,181,40.6933877,-73.99475389999999
Brooklyn,1651 50TH   STREET                       ,11204,133,8,30,40.62985,-73.984612
Brooklyn,2158 60TH   STREET                       ,11204,217,1,443,40.616971,-73.979438
Brooklyn,904 GREENE AVE                           ,11221,144,2,329,40.690382,-73.93182300000001
Brooklyn,793 EAST 48TH STREET                     ,11203,6,7,320,40.641883,-73.93099699999999
Brooklyn,22 NORTH 6TH STREET                      ,11249,96,5,582,38.6588104,-90.1661881
Brooklyn,424 CONEY ISLAND AVE                     ,11218,258,0,235,40.647384,-73.971514
Brooklyn,1314 MYRTLE AVENUE                       ,11221,16,0,768,40.698087,-73.923506
Brooklyn,538 GRAHAM AVENUE                        ,11222,224,8,620,40.721383,-73.946664
Brooklyn,1470 EAST 4TH   STREET                   ,11230,286,6,660,40.614735,-73.971323
Brooklyn,5702 AVENUE N                            ,11234,81,3,828,40.6193434,-73.9201004
Brooklyn,570 WESTMINSTER ROAD F5                 ,11230,261,7,467,40.634499,-73.96652999999999
Brooklyn,960 PARK PLACE                           ,11213,32,6,859,40.672917,-73.94581699999999
Brooklyn,5901 7TH AVENUE                          ,11220,139,7,905,40.637169,-74.011023
Brooklyn,324 20TH STREET                          ,11215,210,1,640,40.659979,-73.9901299
Brooklyn,625 WORTMAN AVENUE                       ,11208,91,5,38,40.6635755,-73.87118559999999
Brooklyn,105 BEACON COURT                         ,11229,178,0,151,40.590035,-73.923384
Brooklyn,1071 HERKIMER STREET                     ,11233,234,8,761,40.678129,-73.9179
Brooklyn,721 AVENUE U                             ,11223,133,5,762,40.5982815,-73.9633924
Brooklyn,1563 EAST 34TH   STREET                  ,11234,18,3,735,40.616875,-73.94141499999999
Brooklyn,119 STATE STREET 1                      ,11201,5,9,872,38.67859079999999,-90.16106789999999
Brooklyn,224 87TH STREET                          ,11209,55,2,324,40.6229609,-74.033338
Brooklyn,342 THOMAS S BOYLAND ST                  ,11233,17,0,702,40.672701,-73.91431399999999
Brooklyn,1369 41ST STREET                         ,11218,263,7,403,40.638624,-73.98553900000002
Brooklyn,1275 EAST 5TH STREET 1E                 ,11230,135,6,245,40.6196296,-73.97081469999999
Brooklyn,1169 EAST 14TH   STREET                  ,11230,203,1,509,40.621004,-73.961242
Brooklyn,2822 FORT HAMILTON PARKWA                ,11218,225,4,592,40.64864499999999,-73.977178
Brooklyn,415 EAST 23RD   STREET                   ,11226,21,4,615,40.639952,-73.955825
Brooklyn,275 CLINTON AVENUE 41                   ,11205,92,5,282,41.7229647,-92.451489
Brooklyn,2906 FORT HAMILTON PARKWA                ,11218,218,1,333,40.648477,-73.977637
Brooklyn,230 JAY STREET 8D                       ,11201,227,7,477,40.69768310000001,-73.9872707
Brooklyn,6715 12TH AVENUE                         ,11219,230,3,489,40.625662,-74.00501799999999
Brooklyn,353 EAST 25TH   STREET                   ,11226,14,7,545,40.64159799999999,-73.95311699999999
Brooklyn,602 MONTGOMERY STREET                    ,11225,288,1,746,40.664783,-73.94476399999999
Brooklyn,380 EAST 8TH   STREET                    ,11218,238,1,799,40.640751,-73.97142699999999
Brooklyn,372 DEKALB AVENUE 6B                    ,11205,189,6,240,40.689792,-73.962824
Brooklyn,2908 EMMONS AVENUE                       ,11235,67,9,903,40.5834935,-73.9391062
Brooklyn,271 LEFFERTS AVENUE                      ,11225,31,0,312,40.662527,-73.952302
Brooklyn,377 SUMPTER STREET                       ,11233,173,6,58,40.681351,-73.910011
Brooklyn,491 LINCOLN AVENUE                       ,11208,196,3,709,41.7226855,-92.4526446
Brooklyn,73 BAY 47TH   STREET                     ,11214,9,7,835,40.589778,-73.985733
Brooklyn,1697 EAST 34TH   STREET                  ,11234,207,2,672,40.6143209,-73.9385719
Brooklyn,1117 79TH   STREET                       ,11228,118,9,511,40.620548,-74.013571
Brooklyn,8225 7 AVENUE                            ,11228,175,0,814,40.6206729,-74.01998200000001
Brooklyn,601 ST. MARKS AVE                        ,11216,38,6,105,40.675683,-73.953743
Brooklyn,1415 53RD   STREET                       ,11219,166,9,581,40.631337,-73.991614
Brooklyn,446 KINGSTON AVE F1                     ,11225,221,7,195,40.663253,-73.943319
Brooklyn,1169 73RD STREET                         ,11228,190,8,342,40.6232339,-74.008707
Brooklyn,925 PACIFIC STREET                       ,11238,232,5,531,40.680321,-73.963584
Brooklyn,1 MAIN STREET                            ,11201,44,7,760,40.703733,-73.990279
Brooklyn,8301 RIDGE BOULEVARD 3H                 ,11209,86,6,319,40.625958,-74.03229999999999
Brooklyn,227 15TH STREET                          ,11215,25,1,689,40.665461,-73.988562
Brooklyn,8788 19TH AVENUE                         ,11214,160,3,837,40.602327,-74.004598
Brooklyn,1340 ST MARKS AVENUE                     ,11233,109,5,939,40.673567,-73.92414
Brooklyn,525 QUINCY STREET                        ,11221,43,3,652,40.6885698,-73.9385475
Brooklyn,345 WEBSTER AVENUE 5T                   ,11230,80,8,467,40.63400499999999,-73.968892
Brooklyn,2207 EAST 4TH   STREET                   ,11223,248,4,477,40.596349,-73.9673171
Brooklyn,2210 EAST 12TH   STREET                  ,11229,103,2,404,40.595954,-73.960022
Brooklyn,2701 OCEAN AVENUE 1A                    ,11229,130,1,658,40.595602,-73.950333
Brooklyn,1493 EAST 9TH STREET                     ,11230,157,7,42,40.6126403,-73.9646563
Brooklyn,7520 RIDGE BOULEVARD 2C                 ,11209,202,5,751,40.631665,-74.030999
Brooklyn,1616 QUENTIN ROAD                        ,11229,284,2,332,40.608189,-73.956631
Brooklyn,518 53RD   STREET                        ,11220,103,0,583,40.642937,-74.011712
Brooklyn,534 54TH   STREET                        ,11220,77,8,491,40.642181,-74.011977
Brooklyn,174 VERNON AVE                           ,11206,124,4,864,40.694862,-73.944995
Brooklyn,15 DAKOTA PLACE                          ,11234,34,0,158,40.607247,-73.9082789
Brooklyn,1776 W. 8TH STREET                       ,11223,176,5,111,40.60387,-73.98116499999999
Brooklyn,75 OCEANA DRIVE EAST                     ,11235,18,0,740,40.5770247,-73.9579627
Brooklyn,978 DECATUR ST                           ,11207,195,4,578,40.6843157,-73.9115727
Brooklyn,1427 52ND STREET                         ,11219,4,7,406,40.631756,-73.990791
Brooklyn,240 COZINE AVENUE                        ,11207,161,4,867,40.655492,-73.883089
Brooklyn,2511 OCEAN AVENUE                        ,11229,60,5,841,40.6001914,-73.9513807
Brooklyn,1636 72ND   STREET                       ,11204,25,4,29,40.617238,-73.998161
Brooklyn,227 SKILLMAN STREET                      ,11205,214,8,161,40.691393,-73.956188
Brooklyn,205 HICKS STREET 5B                     ,11201,157,1,560,40.6953744,-73.99576499999999
Brooklyn,1202 40TH STREET                         ,11218,251,0,597,40.641104,-73.9890659
Brooklyn,756 GREENE AVE                           ,11221,174,9,847,40.68966,-73.93813999999999
Brooklyn,19 HERKIMER STREET                       ,11216,145,4,505,40.680015,-73.9524859
Brooklyn,528 40TH   STREET                        ,11232,224,0,204,40.650052,-74.003891
Brooklyn,384-394 BRIDGE ST                        ,11201,5,7,676,40.6913714,-73.9853361
Brooklyn,1680 OCEAN AVENUE 3D                    ,11230,39,6,364,40.621148,-73.95598
Brooklyn,926 PROSPECT PLACE                       ,11213,15,9,167,40.673825,-73.946011
Brooklyn,396 CORNELIA STREET                      ,11237,72,1,623,40.697019,-73.908462
Brooklyn,40 OCEAN PARKWAY 2B                     ,11218,75,5,919,40.65043960000001,-73.9748606
Brooklyn,17 WILLOW PLACE                          ,11201,9,5,652,40.693059,-73.99754899999999
Brooklyn,396 COURT STREET                         ,11231,136,3,872,40.680783,-73.99687399999999
Brooklyn,34 MONROE STREET                         ,11238,180,5,443,40.684368,-73.957773
Brooklyn,190 AMHERST STREET                       ,11235,234,5,777,40.57723499999999,-73.952253
Brooklyn,1710 78TH   STREET                       ,11214,184,5,464,40.612699,-73.99995299999999
Brooklyn,500 4 AVENUE                             ,11215,177,8,162,40.6684773,-73.99067269999999
Brooklyn,151 BAY 28TH   STREET                    ,11214,56,6,936,40.599718,-73.99816799999999
Brooklyn,7825 4TH AVENUE B6                      ,11209,292,7,927,40.627939,-74.025775
Brooklyn,456 JEFFERSON AVENUE                     ,11221,221,5,340,40.68421499999999,-73.93962599999999
Brooklyn,1656 STILLWELL AVENUE                    ,0,296,3,825,40.6057284,-73.9871495
Brooklyn,946 EAST 49TH STREET                     ,11203,32,3,584,40.638291,-73.930245
Brooklyn,1091 EAST 22ND STREET                    ,11210,229,4,66,40.625419,-73.954049
Brooklyn,1422 EAST 99TH   STREET                  ,11236,257,7,234,40.6359489,-73.889678
Brooklyn,2228 WEST 5TH   STREET                   ,11223,75,1,645,40.5936949,-73.976255
Brooklyn,1115 WILLMOHR STREET                     ,11212,288,0,351,40.65731299999999,-73.91774099999999
Brooklyn,526 AVENUE Z                             ,11223,147,8,885,40.5857706,-73.9743072
Brooklyn,1133 CLARKSON AVENUE                     ,11212,180,8,306,40.660885,-73.92093299999999
Brooklyn,731 PUTNAM AVENUE                        ,11221,110,5,294,40.68629,-73.932222
Brooklyn,4108 OCEAN AVENUE                        ,11235,209,9,52,40.580333,-73.94812399999999
Brooklyn,195 LEGION STREET                        ,11212,31,4,116,40.6640159,-73.916798
Brooklyn,598 JEROME STREET                        ,11207,279,8,504,40.666309,-73.885226
Brooklyn,387 GRANT AVE                            ,11208,271,4,945,40.68134999999999,-73.86655999999999
Brooklyn,1640 FLATBUSH AVENUE                     ,11210,231,3,596,40.630291,-73.945391
Brooklyn,85 NORTH 6TH   STREET                    ,11249,230,0,846,38.6587822,-90.1662127
Brooklyn,27 PROSPECT PARK WEST 6A                ,11215,235,8,908,40.670914,-73.97202399999999
Brooklyn,124 MALCOLM X BOULEVARD                  ,11221,226,2,690,40.689437,-73.930632
Brooklyn,35 CROWN STREET 6E                      ,11225,203,3,948,40.6676155,-73.9606773
Brooklyn,36 HUBBARD PLACE                         ,11210,262,3,909,40.62474599999999,-73.93728
Brooklyn,1305 ATLANTIC AVENUE                     ,11216,33,2,715,40.678554,-73.947344
Brooklyn,2145 85TH STREET                         ,11214,15,7,653,40.603353,-73.994083
Brooklyn,71 BLEECKER STREET                       ,11221,146,6,487,40.694496,-73.92218199999999
Brooklyn,413 STATE STREET 4                      ,11217,93,6,926,38.6812903,-90.1602455
Brooklyn,855 EAST 7TH STREET 4J                  ,11230,178,2,276,40.630102,-73.969684
Brooklyn,8519 10TH   AVENUE                       ,11228,37,4,837,40.61813,-74.020077
Brooklyn,2610 OCEAN PARKWAY 6A                   ,11235,283,4,854,40.586335,-73.966826
Brooklyn,5612 FORT HAMILTON PARKWA                ,11219,191,1,543,40.6348789,-74.0031566
Brooklyn,58 METROPOLITAN AVENUE                   ,11249,156,2,379,40.7173813,-73.9645201
Brooklyn,2342 WEST 11TH   STREET                  ,11223,70,1,951,40.590379,-73.981436
Brooklyn,1360 OCEAN PARKWAY 2G                   ,11230,186,1,541,40.615294,-73.96962599999999
Brooklyn,295 DEGRAW ST                            ,11231,124,0,52,40.68375400000001,-73.99461099999999
Brooklyn,248 MALCOLM X BOULEVARD                  ,11221,35,1,12,40.684526,-73.929648
Brooklyn,69 SOUTH OXFORD STREET                   ,11217,114,6,867,40.6875942,-73.9735559
Brooklyn,2286 EAST 12TH   STREET                  ,11229,47,9,891,40.5942126,-73.9597084
Brooklyn,14 BOERUM STREET                         ,11206,108,2,836,40.7053064,-73.9490972
Brooklyn,121 TAAFFE PLACE                         ,11205,107,6,181,40.694995,-73.9600899
Brooklyn,303 POWELL STREET                        ,11212,23,8,357,39.5358491,-86.36950820000001
Brooklyn,369 HARMAN STREET                        ,11237,37,1,664,40.701542,-73.91758399999999
Brooklyn,214 NORTH 11 STREET                      ,11211,111,5,878,40.7186074,-73.9535176
Brooklyn,2908 EMMONS AVENUE                       ,11235,170,1,683,40.5834935,-73.9391062
Brooklyn,2461 EAST 29TH STREET 3C                ,11235,70,3,201,40.5920134,-73.9411676
Brooklyn,171 BAY 17                               ,11214,19,4,585,40.604061,-74.006969
Brooklyn,43 SKILLMAN ST                           ,11205,206,0,827,40.6972301,-73.95761019999999
Brooklyn,2029 EAST 1ST STREET                     ,11223,233,0,943,40.5990014,-73.9706364
Brooklyn,384-394 BRIDGE ST                        ,11201,270,0,146,40.6913714,-73.9853361
Brooklyn,151 HEWES STREET                         ,11211,177,6,695,40.703148,-73.9587559
Brooklyn,110 EAST 53RD STREET                     ,11203,135,6,706,40.65750999999999,-73.928381
Brooklyn,2181 STRAUSS STREET                      ,11212,213,6,638,40.660602,-73.91394799999999
Brooklyn,687 GEORGIA AVENUE                       ,11207,47,5,577,40.659965,-73.893501
Brooklyn,970 41ST   STREET                        ,11219,107,6,695,40.6436257,-73.9945074
Brooklyn,359 WYONA STREET                         ,11207,227,7,906,40.670044,-73.892167
Brooklyn,1071 71ST STREET                         ,11228,213,0,57,40.625642,-74.0097
Brooklyn,N/A FORREST STREET                       ,11206,186,8,193,40.702431,-73.93279199999999
Brooklyn,147 PACIFIC STREET 1B                   ,11201,125,8,289,40.6896703,-73.99491569999999
Brooklyn,492 MORGAN AVENUE                        ,11222,36,0,422,40.721033,-73.937969
Brooklyn,272 EAST 37TH STREET                     ,11203,143,6,425,40.650421,-73.94304199999999
Brooklyn,85 SMITH STREET                          ,11201,85,0,347,40.6889049,-73.9886787
Brooklyn,702 EMPIRE BOULEVARD                     ,11213,28,3,556,40.663567,-73.938952
Brooklyn,512 LINWOOD STREET                       ,11208,58,0,692,40.67280299999999,-73.882452
Brooklyn,267 PUTNAM AVENUE                        ,11216,295,4,689,40.68407699999999,-73.951495
Brooklyn,969 80TH   STREET                        ,11228,103,6,407,40.622005,-74.017478
Brooklyn,161 PRESIDENT STREET 1L                 ,11231,29,2,682,40.68312,-74.00040299999999
Brooklyn,9265 SHORE ROAD 5C                      ,11209,103,3,511,40.6193447,-74.0398672
Brooklyn,88 UNION AVENUE                          ,11206,77,1,894,40.702418,-73.9501085
Brooklyn,446 ROGERS AVENUE                        ,11225,280,8,711,40.661653,-73.9539379
Brooklyn,214 NORTH 11 STREET                      ,11211,148,2,867,40.7186074,-73.9535176
Brooklyn,630 GRAND STREET                         ,11211,101,6,293,40.711086,-73.946843
Brooklyn,917 58TH STREET                          ,11219,87,0,783,40.6351889,-74.005507
Brooklyn,2523 WEST 15TH   STREET                  ,11214,120,3,621,40.5858703,-73.98420829999999
Brooklyn,269 8TH STREET                           ,11215,138,1,293,40.6701323,-73.9862052
Brooklyn,1067 EAST 93RD   STREET                  ,11236,14,9,898,40.643879,-73.90586499999999
Brooklyn,39 HALE AVENUE                           ,11208,28,5,493,40.68455,-73.88069700000001
Brooklyn,270 1ST STREET                           ,11215,34,4,800,40.674601,-73.9837854
Brooklyn,139 JACKSON STREET                       ,11211,95,8,512,41.7296399,-92.4454324
Brooklyn,219 ECKFORD STREET                       ,11222,299,9,138,40.72669,-73.950735
Brooklyn,446 EIGHTH STREET                        ,11215,95,8,193,40.66670999999999,-73.97998799999999
Brooklyn,538 EAST 86TH STREET                     ,11236,179,6,121,40.6426364,-73.9138667
Brooklyn,62 BRIGHTON 2 PLACE                      ,11235,139,7,243,40.5794339,-73.9659208
Brooklyn,7009 18TH AVENUE                         ,11204,232,0,201,40.615894,-73.993044
Brooklyn,28 WALDORF COURT                         ,11230,210,2,510,40.631347,-73.962368
Brooklyn,1452 73RD STREET                         ,11228,298,2,468,40.619129,-74.002842
Brooklyn,22 DIKEMAN STREET                        ,11231,27,9,191,40.6750468,-74.01068819999999
Brooklyn,34 NORTH 7TH   STREET                    ,11249,4,9,258,40.72091289999999,-73.96280689999999
Brooklyn,2249 EAST 29TH STREET                    ,11229,156,2,947,40.5969989,-73.941961
Brooklyn,1436 STERLING PLACE                      ,11213,57,4,447,40.671252,-73.93119999999999
Brooklyn,2546 EAST 13TH STREET F6                ,11235,243,1,480,40.588468,-73.957009
Brooklyn,1343 FLATBUSH AVENUE                     ,11210,256,8,155,40.63824,-73.95309
Brooklyn,936 40TH STREET                          ,11219,166,1,699,40.644634,-73.99492599999999
Brooklyn,12427 FLATLANDS AVENUE                   ,11208,203,2,870,40.6577559,-73.8748087
Brooklyn,462 52ND   STREET                        ,11220,65,3,798,40.644202,-74.012316
Brooklyn,12421 FLATLANDS AVENUE                   ,11208,280,0,713,40.6577214,-73.8748877
Brooklyn,4305 CLARENDON ROAD                      ,11203,183,5,26,40.644269,-73.936099
Queens,172-05 HIGHLAND AVENUE                   ,11432,160,4,317,40.713263,-73.791158
Queens,74-54 64TH   LANE                        ,11385,270,4,54,40.698839,-73.8905599
Queens,87-21 87TH   STREET                      ,11421,89,6,853,40.692027,-73.856743
Queens,150-20 71ST AVENUE 6D                   ,11367,88,5,788,40.7287357,-73.8172427
Queens,79-21 71ST   AVENUE                      ,11385,213,0,820,40.707611,-73.870852
Queens,2-40 51ST   AVENUE                       ,11101,284,2,659,40.7424157,-73.9570957
Queens,24-33 ERICSSON STREET                    ,11369,230,1,326,40.766172,-73.86761
Queens,48-18 43RD STREET 4B                    ,11377,143,6,853,40.7390207,-73.9225907
Queens,70-25 YELLOWSTONE BLVD 6A               ,11375,104,1,465,40.7221643,-73.84924339999999
Queens,504 BEACH 68TH ST                        ,11692,0,7,158,40.5971701,-73.7976701
Queens,33-61 29TH STREET                        ,11106,184,5,89,40.760532,-73.928402
Queens,37-08 92 STREET                          ,11372,287,2,770,40.750394,-73.875216
Queens,109-18 PINEGROVE STREET                  ,11435,180,1,346,40.688282,-73.80258599999999
Queens,19-41 75TH   STREET                      ,11370,27,0,738,40.770884,-73.894488
Queens,160-15 78 ROAD                           ,11366,148,9,289,40.722121,-73.80721799999999
Queens,35-51 85 STREET 4G                      ,11372,17,4,283,40.7506741,-73.8812392
Queens,144-10 135TH   AVENUE                    ,11436,42,2,397,40.667445,-73.79487200000001
Queens,47-20 169 STREET                         ,11358,250,5,796,40.749507,-73.79913599999999
Queens,61-88 DRY HARBOR ROAD 4E                ,11379,228,2,427,40.72576,-73.872754
Queens,10-46 JACKSON AVENUE                     ,11101,25,5,648,40.7423185,-73.9529435
Queens,60-08 146TH   STREET                     ,11355,218,8,353,40.742382,-73.823478
Queens,165-26 CLINTON TERRACE                   ,11432,141,5,277,40.7096584,-73.7980774
Queens,140-16 33RD   AVENUE                     ,11354,45,2,51,40.7675762,-73.82788640000001
Queens,127-18 KEW GARDENS ROAD                  ,11415,285,0,17,40.7070456,-73.82456990000001
Queens,138-33 JEWEL AVENUE 2B                  ,11367,114,5,449,40.7314969,-73.8001512
Queens,84-21 61 ROAD                            ,11379,31,6,461,40.727002,-73.873437
Queens,1689 GATES AVENUE                        ,11385,231,2,419,41.124382,-81.45841229999999
Queens,144-03 79TH AVENUE A1C                  ,11367,88,3,444,40.7282239,-73.7948516
Queens,N/A 164TH   AVENUE                       ,11414,157,0,387,40.6508314,-73.83769810000001
Queens,153-41 78TH AVENUE                       ,11367,26,3,396,40.722492,-73.810435
Queens,164-12 87TH STREET                       ,11414,282,9,577,40.649517,-73.843559
Queens,108-19 37 DRIVE                          ,11368,88,8,621,40.753535,-73.859332
Queens,N/A JAMAICA AVENUE                       ,11423,280,8,785,40.702677,-73.7889689
Queens,30-75 49TH STREET                        ,11103,90,5,55,40.758486,-73.909106
Queens,75-10 YELLOWSTONE BLVD 4K               ,11374,271,4,434,40.714877,-73.859034
Queens,7137 69TH STREET                         ,11385,290,1,447,40.702914,-73.882993
Queens,15-33 BELL BOULEVARD                     ,11360,88,0,220,40.786525,-73.77908599999999
Queens,60-70 54TH   STREET                      ,11378,119,4,411,40.7135442,-73.9115477
Queens,32-20 200TH   STREET                     ,11361,202,1,285,40.769046,-73.789299
Queens,26910 GRAND CENTRAL PARKWA 3S           ,11005,145,8,408,40.757181,-73.71441399999999
Queens,196-15 118TH   AVENUE                    ,11412,297,4,645,40.692748,-73.755038
Queens,112-21 FARMERS BLVD                      ,11412,294,3,242,40.700353,-73.76351799999999
Queens,131-07 40TH   ROAD                       ,11354,10,6,580,40.7558067,-73.8375736
Queens,69-38 79TH   STREET                      ,11379,47,7,463,40.708671,-73.873549
Queens,67-11 YELLOWSTONE BOULEVAR 6H           ,11375,130,1,120,40.7281347,-73.8491961
Queens,109-60 143RD STREET                      ,11435,75,7,757,40.686861,-73.80239499999999
Queens,70-73B PARK DRIVE EAST                   ,11367,275,5,921,40.7262811,-73.82930759999999
Queens,219-31 113TH   AVENUE                    ,11429,39,6,248,40.704234,-73.736758
Queens,217-91 HEMPSTEAD AVENUE                  ,11429,181,8,862,40.714411,-73.738671
Queens,25-01 30TH AVENUE                        ,11102,193,4,462,40.768745,-73.92480300000001
Queens,195 BEACH 123RD STREET                   ,11694,22,1,307,40.5777168,-73.8429893
Queens,100-25 QUEENS BLVD.                      ,11375,101,2,233,40.7226972,-73.847955
Queens,104-20 188TH STREET                      ,11412,122,6,574,40.70535599999999,-73.769188
Queens,169-04 FOCH BLVD                         ,11434,251,2,915,40.685829,-73.77750999999999
Queens,80-68 87TH AVENUE                        ,11421,201,4,312,40.691498,-73.859461
Queens,144-20 72ND   DRIVE                      ,11367,209,3,417,40.725382,-73.820088
Queens,99-41 63RD   AVENUE                      ,11374,78,6,957,40.7336389,-73.85588299999999
Queens,100-23 41ST AVENUE                       ,11368,200,7,340,40.7485493,-73.8638255
Queens,92-11 35TH AVE. 1P                      ,11372,6,5,407,40.753049,-73.874917
Queens,76-36 113TH STREET 5N                   ,11373,36,9,386,40.717234,-73.833368
Queens,93-06 208TH STREET                       ,11428,152,2,129,40.716735,-73.754329
Queens,7-17 149TH   STREET                      ,11357,92,8,155,40.793822,-73.8176
Queens,77-14 64 STREET                          ,11385,126,2,211,40.697481,-73.892116
Queens,197-13 89TH ROAD                         ,11423,70,9,363,40.716653,-73.763519
Queens,165-22 145TH   AVENUE                    ,11434,225,1,294,40.663268,-73.775626
Queens,81-10 HADDON STREET                      ,11432,127,1,170,40.726114,-73.7819729
Queens,162-10 POWELLS COVE BOULEVA 4C          ,11357,191,0,793,40.793767,-73.799052
Queens,1330 GRANDVIEW TERRACE                   ,11691,141,7,797,40.5998868,-73.7475511
Queens,1829 MADISON STREET                      ,11385,164,2,511,40.702787,-73.90567399999999
Queens,79-09 ROCKAWAY BOULEVARD                 ,11421,26,9,438,40.6850072,-73.8609941
Queens,130-34 122ND   PLACE                     ,11420,105,6,264,40.672595,-73.816642
Queens,111-14 111TH STREET                      ,11420,269,9,643,40.678011,-73.828208
Queens,83-15 LITTLE NECK PARKWAY                ,11004,299,2,473,40.737538,-73.71402499999999
Queens,134-26 155TH   STREET                    ,11434,296,6,883,40.670116,-73.781176
Queens,36-41 169TH   STREET                     ,11358,241,1,723,40.761508,-73.79692899999999
Queens,84-20 153 AVE 1H                        ,11414,64,8,618,40.6662441,-73.8489373
Queens,25-19 44TH STREET                        ,11103,55,0,665,40.765804,-73.908675
Queens,69-03 150TH STREET 40B                  ,11367,76,8,479,40.7318995,-73.819245
Queens,215-07 39TH   AVENUE                     ,11361,170,6,226,40.7660709,-73.768811
Queens,156-11 97  STREET                        ,11414,215,3,318,40.6636879,-73.8366649
Queens,151-67 18 AVENUE                         ,11357,140,4,59,40.782539,-73.809253
Queens,42-12 77TH   STREET                      ,11373,273,5,493,40.743087,-73.88815
Queens,75-14 60 LANE                            ,11385,87,1,570,40.698141,-73.8950629
Queens,132-15 41ST   AVENUE                     ,11355,57,3,935,40.7564942,-73.8333045
Queens,43-21 ELBERTSON STREET                   ,11373,222,6,661,40.74498699999999,-73.872349
Queens,139-76 35TH   AVENUE                     ,11354,290,5,867,40.7656696,-73.82496069999999
Queens,21-17 24TH   ROAD                        ,11102,72,0,109,40.775826,-73.921442
Queens,118-20 OCEAN PROMENADE                   ,11694,9,2,907,40.5772,-73.83843999999999
Queens,65-18 79TH   PLACE                       ,11379,111,6,913,40.717158,-73.87346699999999
Queens,16-02 160TH   STREET                     ,11357,13,6,91,40.784018,-73.803547
Queens,35-20 147TH   STREET                     ,11354,17,8,892,40.765857,-73.81982789999999
Queens,116-19 MEXICO STREET                     ,11412,117,5,611,40.693464,-73.763412
Queens,91-15 LAMONT AVENUE 5M                  ,11373,267,4,683,40.743812,-73.87463699999999
Queens,69-03 242ND   STREET                     ,11362,260,7,39,40.7503457,-73.73644
Queens,136-63 68TH DRIVE B                     ,11367,161,3,830,40.73071909999999,-73.8305242
Queens,110-45 71ST ROAD 2R                     ,11375,41,3,787,40.722314,-73.8397169
Queens,119-32 145TH STREET                      ,11436,241,7,613,40.677282,-73.795563
Queens,14-13 30TH   DRIVE                       ,11102,83,4,758,40.769155,-73.930559
Queens,141-52 33RD   AVENUE                     ,11354,196,3,284,40.7678784,-73.82480860000001
Queens,11-24 31ST   AVENUE                      ,11106,59,9,120,40.7691997,-73.9344564
Queens,118-16 154TH   STREET                    ,11434,4,3,493,40.680592,-73.78880400000001
Queens,112-01 QUEENS BOULEVARD                  ,11375,279,5,388,40.7187202,-73.8368722
Queens,139-10 28TH   ROAD 5A                   ,11354,42,4,153,40.77185799999999,-73.8280257
Queens,61-57 77TH   STREET                      ,11379,141,0,490,40.722361,-73.88115599999999
Queens,33-11 28TH AVENUE                        ,11103,190,4,745,40.767703,-73.917827
Queens,209-10 41ST AVENUE 3P                   ,11361,154,2,482,40.762797,-73.7767609
Queens,76-36 113TH STREET 6V                   ,11373,292,8,866,40.717234,-73.833368
Queens,89-19 217TH STREET                       ,11427,177,5,745,40.72688,-73.746036
Queens,N/A 164TH   AVENUE                       ,11414,252,1,585,40.6508314,-73.83769810000001
Queens,112-25 34TH AVENUE G                    ,11368,195,7,729,40.7570425,-73.8564526
Queens,90-57 207 ST                             ,11428,241,5,943,40.717162,-73.75505300000002
Queens,128-19 PEARL ROAD                        ,11356,264,1,248,40.7924784,-73.8396297
Queens,85-97 PARSONS BOULEVARD                  ,11432,143,3,819,40.709703,-73.804896
Queens,101-46 124 STREET                        ,11419,131,6,744,40.689798,-73.821535
Queens,34-62 10TH STREET                        ,11106,44,4,601,40.7633369,-73.93974539999999
Queens,252-46 LEEDS ROAD                        ,11362,155,2,393,40.765056,-73.728645
Queens,72-11 ROOSEVELT AVENUE                   ,11372,164,4,714,40.746896,-73.8931999
Queens,56 WEST 10TH ROAD                        ,11693,232,1,312,40.605872,-73.822366
Queens,11-07 COLLEGE POINT BLVD.                ,11356,245,4,713,40.787748,-73.845354
Queens,41-31 51ST   STREET 4B                  ,11377,107,8,784,40.745101,-73.913056
Queens,13-11 JACKSON AVENUE                     ,11101,212,1,131,40.7443949,-73.9495213
Queens,138-53 SPRINGFIELD BLVD                  ,11413,261,6,857,40.673478,-73.755797
Queens,29-14 NEWTOWN AVENUE                     ,11102,70,0,648,40.768717,-73.922034
Queens,95-49 112TH   STREET                     ,11419,230,1,740,40.689584,-73.832183
Queens,47-21 190TH STREET                       ,11358,267,5,683,40.750572,-73.788966
Queens,219-25 74TH AVENUE 439B1                ,11364,172,7,226,40.7282239,-73.7948516
Queens,89-16 175TH   STREET                     ,11432,158,2,840,40.7101203,-73.78688129999999
Queens,146-36 60 AVE                            ,11355,291,5,760,40.7418819,-73.821879
Queens,188-16 122 AVENUE                        ,11413,62,0,625,40.684075,-73.757531
Queens,177-20 145TH ROAD                        ,11434,107,0,371,40.6653198,-73.7689424
Queens,169-10 107TH AVE                         ,11433,256,2,405,40.699729,-73.78713499999999
Queens,132-18 41ST AVENUE                       ,11355,65,0,865,40.756321,-73.833112
Queens,43-12 204TH STREET                       ,11361,147,7,434,40.758394,-73.7797609
Queens,3343 88TH STREET                         ,11372,122,7,362,40.754897,-73.879257
Queens,82-127 COUNTRY POINTE CRCL               ,11427,281,7,102,40.7344142,-73.7341739
Queens,14-10 212 STREET 161                    ,11360,259,0,260,40.7645712,-73.7735199
Queens,70-31 108TH STREET 14-B                 ,11375,51,8,86,40.7221681,-73.8438448
Queens,146-22 KALMIA AVENUE                     ,11355,252,4,639,40.752314,-73.81327399999999
Queens,81-10 155TH AVENUE 55                   ,11414,214,3,863,40.6643526,-73.85192900000001
Queens,32-14 BELL BOULEVARD                     ,11361,69,1,838,40.77319,-73.774997
Queens,68-15 242ND   STREET                     ,11362,55,4,19,40.7507285,-73.7365044
Queens,2 BAY CLUB DRIVE                         ,11360,8,6,837,40.7282239,-73.7948516
Queens,162-14 TUSKEGEE AIRMAN WAY               ,11433,208,8,703,40.7001257,-73.7956622
Queens,87-13 HOMELAWN STREET                    ,11432,82,9,326,40.712197,-73.7927069
Queens,101-46 110TH STREET                      ,11419,126,6,895,40.686437,-73.833178
Queens,11-15 129TH   STREET                     ,11356,13,7,523,40.787379,-73.838887
Queens,45-33 156TH STREET                       ,11355,14,7,125,40.755807,-73.8099639
Queens,66-83 70TH STREET                        ,11379,62,7,853,40.7124193,-73.8848196
Queens,17804 120 AVENUE                         ,11434,71,4,149,40.68502,-73.76577
Queens,5-25 BORDEN AVENUE                       ,11101,184,9,184,40.7417928,-73.9559854
Queens,49-01 O'CONNELL COURT                    ,11373,73,0,421,40.740467,-73.87510499999999
Queens,30-03 83RD STREET                        ,11370,84,1,452,40.761135,-73.88514099999999
Queens,24-52 32 STREET                          ,11102,146,4,766,40.7708798,-73.9161713
Queens,134-19 243RD   STREET                    ,11422,284,5,643,40.672032,-73.731407
Queens,104-23 106TH STREET                      ,11417,276,1,557,40.682234,-73.834771
Queens,91-30 81ST   STREET                      ,11421,282,3,336,40.685821,-73.86004
Queens,268-06 82ND AVENUE 125-B                ,11040,179,2,396,40.7426879,-73.7027305
Queens,91-28 79TH STREET                        ,11421,269,5,345,40.685716,-73.861817
Queens,40-38 82ND STREET                        ,11373,112,2,857,40.746443,-73.88398699999999
Queens,100-09 39TH AVE                          ,11368,239,4,471,40.75026,-73.865426
Queens,69-79 JUNIPER BOULEVARD S                ,11379,280,1,355,40.7171707,-73.8855203
Queens,35-18 104TH   STREET                     ,11368,217,7,171,40.754379,-73.86428699999999
Queens,115-42 146 STREET                        ,11436,113,1,624,40.682365,-73.796058
Queens,47-18 212TH STREET                       ,11361,36,6,190,40.755784,-73.7698039
Queens,139-22 249TH STREET                      ,11422,263,7,68,40.66329,-73.732247
Queens,8-29 ASTORIA BOULEVARD                   ,11102,191,0,776,40.772567,-73.931429
Queens,12-04 CROSS BAY BOULEVARD                ,11693,123,6,464,40.6042553,-73.8193264
Queens,86-09 233RD   STREET                     ,11427,9,1,118,40.733053,-73.736654
Queens,105-25 67TH AVENUE 4G                   ,11375,240,3,926,40.7288352,-73.8484021
Queens,48-53 GLENWOOD STREET                    ,11362,181,0,238,40.7694477,-73.72967100000001
Queens,139-19 31 ROAD 2E                       ,11354,91,6,22,40.771075,-73.828413
Queens,43-15 69TH   STREET                      ,11377,153,4,845,40.741214,-73.895455
Queens,1236 SAGE STREET                         ,11691,270,8,949,40.608769,-73.7452237
Queens,50-39 61ST   STREET                      ,11377,5,2,785,40.735911,-73.903454
Queens,84-10 153RD AVENUE 5F                   ,11414,270,4,923,40.66598,-73.849319
Queens,90-01 BEACH CHANNEL DRIVE                ,11693,259,0,428,40.5889669,-73.81574599999999
Queens,21165 23AVENUE 2G                       ,11360,19,5,345,40.7809659,-73.7790328
Queens,63-33 98TH PLACE 4G                     ,11374,141,8,940,40.732283,-73.85825700000001
Queens,88-23 SABRE STREET                       ,11427,201,1,232,40.72983199999999,-73.7355199
Queens,5-20 51ST   AVENUE                       ,11101,158,3,610,40.742097,-73.955913
Queens,225-04 MANOR ROAD 82                    ,11427,11,7,291,40.7760873,-73.75263489999999
Queens,27-14 99TH   STREET                      ,11369,114,3,543,40.761617,-73.870558
Queens,63-14 QUEENS BOULEVARD                   ,11377,66,4,541,40.7408922,-73.9019975
Queens,67-50 THORNTON PLACE 6D                 ,11375,28,1,287,40.7202709,-73.857096
Queens,57-52 256TH   STREET                     ,11362,152,2,629,40.762245,-73.72466399999999
Queens,125-10 QUEENS BLVD 623                  ,11415,59,2,486,40.7119724,-73.82678709999999
Queens,1732 GEORGE STREET                       ,11385,95,8,791,40.69861520000001,-73.9020378
Queens,25-40 42ND STREET                        ,11103,295,7,427,40.766317,-73.91115099999999
Queens,30-24 75TH   STREET                      ,11370,194,5,692,40.7597049,-73.893039
Queens,110-50 71ST ROAD 9A                     ,11375,297,6,705,40.7219403,-73.8394552
Queens,150-20 71ST AVENUE 6E                   ,11367,13,8,196,40.7287357,-73.8172427
Queens,64-08 60TH ROAD                          ,11378,109,5,595,40.717557,-73.898782
Queens,81-11 45 AVENUE APT 6                   ,11373,39,9,472,40.741763,-73.883461
Queens,66-41 79TH STREET                        ,11379,38,1,323,40.714566,-73.873941
Queens,120-31 223RD STREET                      ,11411,193,5,822,40.688449,-73.74023
Queens,142-26 59TH AVENUE                       ,11355,40,3,772,40.743333,-73.823736
Queens,162-41 POWELLS COVE BOULEVA 1-C         ,11357,210,9,393,40.79457800000001,-73.797827
Queens,240-31 65TH   AVENUE                     ,11362,264,9,73,40.7533389,-73.738348
Queens,257-47 148TH DRIVE                       ,11422,271,9,93,40.653813,-73.73019699999999
Queens,214-15 26TH   AVENUE                     ,11360,77,1,672,40.778929,-73.775239
Queens,160-38 17TH AVENUE 5-140                ,11357,167,5,473,40.7829325,-73.80127499999999
Queens,23-45 BELL BOULEVARD 6J                 ,11360,103,2,293,40.78091999999999,-73.77389099999999
Queens,101-12 27TH AVENUE                       ,11369,221,1,223,40.7633409,-73.867829
Queens,129-07 135TH PLACE                       ,11420,145,4,956,40.672004,-73.8026557
Queens,27-05 168TH   STREET                     ,11358,75,6,159,40.771933,-73.796469
Queens,38-18 33RD   STREET                      ,11101,275,0,744,40.7526945,-73.93095679999999
Queens,161-36 128TH   AVENUE                    ,11434,116,6,615,40.677263,-73.779484
Queens,112-32 148TH   STREET                    ,11435,98,1,395,40.686171,-73.795918
Queens,36-21 193RD STREET                       ,11358,60,7,504,40.7631296,-73.7892231
Queens,135-46 COOLIDGE AVENUE                   ,11435,113,0,800,40.7149967,-73.8089902
Queens,174-14 125TH   AVENUE                    ,11434,180,3,732,40.6817807,-73.7693644
Queens,14-08 MICHAEL PLACE                      ,11360,190,4,703,40.7860462,-73.7855443
Queens,143-53 BARCLAY AVENUE                    ,11355,233,6,617,40.7597133,-73.8216731
Queens,109-44 178TH STREET                      ,11433,225,9,27,40.698986,-73.77720599999999
Queens,34-29 80 STREET 21                      ,11372,125,2,343,40.752628,-73.8864229
Queens,104-17 89TH   AVENUE                     ,11418,263,1,710,40.69392999999999,-73.842052
Queens,43-04 158TH STREET                       ,11358,273,8,341,40.7587658,-73.8081947
Queens,120-43 132ND STREET                      ,11420,34,1,23,40.6734956,-73.80615449999999
Queens,137-28 68TH DRIVE B                     ,11367,152,5,130,40.730229,-73.82956399999999
Queens,87-84 112TH   STREET                     ,11418,277,9,880,40.695117,-73.83556999999999
Queens,41-40 UNION STREET                       ,11355,0,3,368,40.7581308,-73.8257981
Queens,21-85 34TH AVENUE 2A                    ,11106,167,9,721,40.761759,-73.9310847
Queens,80-20 LANGDALE STREET                    ,11040,33,0,127,40.74625,-73.701904
Queens,43-68 161 STREET                         ,11358,205,7,579,40.756906,-73.805689
Queens,820 MEEHAN AVENUE                        ,11691,92,7,444,40.598282,-73.743698
Queens,66-15 THORNTON PLACE 1D                 ,11374,87,4,237,40.7230953,-73.8575422
Queens,95-28 148TH ST                           ,11435,248,6,897,40.69817099999999,-73.804647
Queens,91-03 78TH   STREET                      ,11421,102,4,683,40.686358,-73.862298
Queens,98-22 63RD DRIVE 5A                     ,11374,186,9,522,40.7309083,-73.85818789999999
Queens,103-25 68TH AVENUE 5K                   ,11375,133,4,436,40.726147,-73.850004
Queens,183-48 CAMDEN AVE                        ,11412,228,0,235,40.703377,-73.771937
Queens,43-24 42ND STREET                        ,11104,187,7,511,40.744622,-73.922473
Queens,82-60 249TH   STREET                     ,11426,58,9,186,40.737311,-73.719414
Queens,41-12 162ND   STREET                     ,11358,83,7,845,40.761011,-73.804176
Bronx,683 EAST 231ST STREET                    ,10466,225,4,852,40.892423,-73.8585669
Bronx,2125 ST RAYMONDS AVENUE                  ,10462,45,8,325,40.8385349,-73.85834249999999
Bronx,517 EAST 171 STREET                      ,10457,6,9,700,40.837458,-73.902215
Bronx,2573 TIEMANN AVENUE                      ,10469,73,5,897,40.8646602,-73.83818149999999
Bronx,963 EAST 221 STREET                      ,10469,261,2,203,40.882672,-73.85405200000001
Bronx,3191 GRAND CONCOURSE                     ,10468,195,9,684,40.876669,-73.88608599999999
Bronx,3750 HUDSON MANOR TERRACE 4BE           ,10463,46,8,480,40.8370495,-73.86542949999999
Bronx,1359 ASTOR AVENUE                        ,10469,65,1,515,40.860005,-73.846925
Bronx,4005 CARPENTER AVENUE                    ,10466,299,5,409,40.8897369,-73.86310399999999
Bronx,267 WEST 259 STREET                      ,10471,195,6,25,40.9066868,-73.8991435
Bronx,500 VAN NEST AVENUE                      ,10460,230,6,919,40.8405611,-73.8705439
Bronx,4563 BRONX BOULEVARD                     ,10470,83,3,752,40.903187,-73.85543299999999
Bronx,1852 MULINER AVENUE                      ,10462,293,3,417,40.847857,-73.861054
Bronx,2446 BOUCK AVENUE                        ,10469,33,5,862,40.862456,-73.849876
Bronx,1440 WOOD ROAD                           ,10462,84,7,516,40.837216,-73.861002
Bronx,5639 NETHERLAND AVENUE 4F               ,10471,218,2,380,40.9053222,-73.9062015
Bronx,2934 HERING AVENUE                       ,10469,94,5,242,40.8687929,-73.85347999999999
Bronx,1435 BRYANT AVENUE                       ,10459,146,2,195,40.831038,-73.88865899999999
Bronx,1288 WASHINGTON AVENUE                   ,10456,121,1,169,40.832696,-73.9057692
Bronx,1561 TOMLINSON AVE                       ,10461,149,0,208,40.845707,-73.849306
Bronx,3215 NETHERLAND AVENUE 5B               ,10463,58,9,353,40.884185,-73.91185399999999
Bronx,1353 BOYNTON AVENUE                      ,10472,43,7,485,40.8330569,-73.87952
Bronx,1786 GLEASON AVENUE                      ,10472,237,5,471,40.829625,-73.86636399999999
Bronx,719 BECK STREET                          ,10455,16,3,472,40.815523,-73.899948
Bronx,460 WEST 236 STREET                      ,10463,73,5,958,40.885549,-73.906672
Bronx,648 MEAD STREET                          ,10460,201,3,395,40.8427903,-73.8658147
Bronx,1680 PELHAM PARKWAY SOUTH                ,10461,142,6,415,40.856051,-73.83784299999999
Bronx,7 METROPOLITAN OVAL                      ,10462,38,6,959,40.841074,-73.86126290000001
Bronx,2563 ST RAYMONDS AVENUE                  ,10461,189,6,708,40.842351,-73.846829
Bronx,2344 CROTONA AVENUE                      ,10458,16,1,422,40.852871,-73.88377
Bronx,890 EAST 241 STREET                      ,10466,279,5,357,40.901451,-73.846109
Bronx,124 GALE PLACE 4A                       ,10463,178,9,922,40.8849829,-73.8932993
Bronx,3870 SETON AVENUE                        ,10466,172,1,511,40.888365,-73.835927
Bronx,1295 SHAKESPEARE AVENUE                  ,10452,63,3,92,40.839768,-73.92276400000002
Bronx,N/A ARLINGTON AVENUE                     ,10471,214,1,626,40.9008248,-73.9083703
Bronx,1475 WEST AVENUE                         ,10462,243,2,24,40.840052,-73.862938
Bronx,201 SURF DRIVE                           ,10473,69,3,305,40.8065428,-73.8520058
Bronx,1504 METROPOLITAN AVENUE                 ,10462,267,8,851,40.8390754,-73.85864579999999
Bronx,2158 ELLIS AVENUE                        ,10462,232,7,187,40.832294,-73.85200499999999
Bronx,812 EAST 223RD STREET                    ,10466,35,8,77,40.885093,-73.85799999999999
Bronx,5621 NETHERLAND AVE 4E                  ,10471,84,2,701,40.9050385,-73.9064185
Bronx,624 WEST 256TH STREET                    ,10471,107,6,277,40.904424,-73.908188
Bronx,1313B CLAY AVENUE                        ,10456,95,6,363,40.8349202,-73.9093109
Bronx,575 UNDERHILL AVENUE                     ,10473,161,1,188,40.817154,-73.859397
Bronx,5254 POST RD                             ,10471,75,0,946,40.898691,-73.89820399999999
Bronx,1036 WHITE PLAINS ROAD                   ,10472,102,3,955,40.827063,-73.859681
Bronx,2280 BATHGATE AVENUE                     ,10457,177,9,378,40.8543959,-73.8917378
Bronx,1918 WALLACE AVENUE                      ,10462,277,6,721,40.848658,-73.864239
Bronx,811 WALTON AVENUE B12                   ,10451,20,1,523,40.8255066,-73.925365
Bronx,2558 WESTERVELT AVENUE                   ,10469,112,0,560,40.864264,-73.839536
Bronx,2731 YOUNG AVENUE                        ,10469,276,4,548,40.86639599999999,-73.848366
Bronx,2070 TENBROECK AVENUE                    ,10461,50,5,275,40.856719,-73.852334
Bronx,2463 VALENTINE AVENUE                    ,10458,0,9,32,40.861241,-73.8966669
Bronx,1527 BRYANT AVENUE                       ,10460,180,7,316,40.83361499999999,-73.887108
Bronx,3840 GREYSTONE AVE 1D                   ,10463,218,2,101,40.8882122,-73.9046173
Bronx,4220 HILL AVENUE                         ,10466,254,3,849,40.89671,-73.84101
Bronx,626 E. 180TH STREET                      ,10457,212,1,432,40.848799,-73.89069599999999
Bronx,2480 BELMONT AVE.                        ,10458,271,9,766,40.8567698,-73.8843132
Bronx,1310 LOHENGRIN PLACE                     ,10465,204,1,139,40.839453,-73.820517
Bronx,1437 WHITE PLAINS ROAD                   ,10462,11,1,928,40.836678,-73.863704
Bronx,464 CITY ISLAND AVENUE                   ,10464,44,4,336,40.851373,-73.788285
Bronx,1208 HARDING PARK                        ,10473,287,5,616,40.8094637,-73.8582784
Bronx,3 FORDHAM HILL OVAL 8D                  ,10468,179,5,819,40.8646489,-73.9082109
Bronx,6300 RIVERDALE AVE 4K                   ,10471,225,1,936,40.912653,-73.902106
Bronx,2526 WILLIAMSBRIDGE ROAD                 ,10469,116,8,339,40.8638649,-73.85828699999999
Bronx,1307 HOE AVENUE                          ,10459,288,3,552,40.831432,-73.890479
Bronx,500 SOUTHERN BOULEVARD 4C               ,10455,105,2,693,40.811024,-73.90533429999999
Bronx,3604 WILLETT AVENUE                      ,10467,298,3,300,40.879683,-73.866084
Bronx,1444 EDWARDS AVENUE                      ,10461,109,4,409,40.839365,-73.83752299999999
Bronx,3065 SEDGWICK AVENUE 3B                 ,10468,17,4,362,40.8766204,-73.8996686
Bronx,2676 MARION AVENUE                       ,10458,151,8,262,40.865072,-73.88994699999999
Bronx,731 EAST 226TH STREET                    ,10466,113,3,140,40.88832,-73.85873099999999
Bronx,1490 OUTLOOK AVENUE                      ,10465,118,3,572,40.84557,-73.814672
Bronx,1626 TAYLOR AVENUE                       ,10460,274,0,579,40.8414689,-73.867727
Bronx,949 EAST 225 STREET                      ,10466,124,6,12,40.88565699999999,-73.852969
Bronx,5114 POST ROAD                           ,10471,76,6,308,40.896306,-73.8978829
Bronx,782 EAST 178TH STREET                    ,10460,208,3,913,40.8447648,-73.8874179
Bronx,2521 PALISADE AVENUE                     ,10463,58,9,792,40.8814014,-73.9223116
Bronx,2730 DECATUR AVE                         ,10458,135,7,452,40.865484,-73.887689
Bronx,2303 ELLIS AVENUE                        ,10462,23,7,873,40.833258,-73.8479378
Bronx,282 LOGAN AVE                            ,10465,294,1,449,40.818809,-73.81544699999999
Bronx,2933 MIDDLETOWN ROAD                     ,10461,148,1,350,40.843848,-73.83176999999999
Bronx,3636 GREYSTONE AVENUE 2C                ,10463,104,4,493,40.886708,-73.905041
Bronx,2029 DALY AVENUE                         ,10460,36,1,193,40.843396,-73.88290599999999
Bronx,3531 BRONXWOOD AVENUE 6H                ,10467,229,1,711,40.8762047,-73.8603621
Bronx,2017 CICERO AVENUE                       ,10473,29,5,59,40.817116,-73.8531239
Bronx,278 E. 241ST STREET                      ,10470,210,4,477,40.9014685,-73.8682785
Bronx,1553 BASSETT AVENUE                      ,10461,227,6,177,40.854074,-73.84150319999999
Bronx,809 EAST 213TH STREET                    ,10467,80,5,147,40.8785224,-73.861128
Bronx,3119 BAILEY AVENUE 5G                   ,10463,36,0,249,40.878759,-73.902356
Bronx,762 BARTHOLDI STREET                     ,10467,84,6,424,40.873828,-73.864659
Bronx,325 EAST 201ST STREET 3K                ,10458,161,8,215,40.8704971,-73.8828149
Bronx,1807 ADEE AVENUE                         ,10469,290,2,280,40.8711709,-73.837949
Bronx,2810 MILES AVENUE                        ,10465,275,4,591,40.817529,-73.819963
Bronx,1408 THIERIOT AVENUE                     ,10460,86,0,799,40.835719,-73.86484899999999
Bronx,2213 ELLIS AVENUE                        ,10462,172,5,838,40.832945,-73.850568
Bronx,598 EAST 167 STREET                      ,10456,241,9,864,40.828384,-73.904615
Bronx,1555 ODELL STREET                        ,10462,157,0,269,40.838597,-73.85487660000001
Bronx,2959 BOSTON ROAD                         ,10469,187,1,273,40.86935099999999,-73.85816299999999
Bronx,1840 AMETHYST STREET                     ,10462,185,2,104,40.8459769,-73.8679133
Bronx,525 WEST 238 STREET 3J                  ,10463,153,9,606,40.888689,-73.908491
Bronx,1229 FRANKLIN AVENUE                     ,10456,0,2,165,40.830652,-73.9035392
Bronx,2755 WEBSTER AVENUE                      ,10458,193,3,788,40.865787,-73.886828
Bronx,2068 CROTONA PARKWAY                     ,10460,51,5,710,40.844794,-73.88454399999999
Bronx,3311 GILES PLACE 4M                     ,10463,180,0,648,40.878981,-73.898816
Bronx,2325 BEAUMONT AVENUE                     ,10458,177,6,480,40.853082,-73.885266
Bronx,1120 INTERVALE AVENUE                    ,10459,130,6,522,40.826532,-73.89629300000001
Bronx,251 EAST 236 STREET                      ,10470,292,8,868,40.8983009,-73.868887
Bronx,2230 TURNBULL AVENUE                     ,10473,20,8,764,40.823958,-73.847679
Bronx,1372 ZEREGA AVENUE                       ,10462,94,2,107,40.836709,-73.84624099999999
Bronx,1059 EVERGREEN AVENUE                    ,10472,134,4,186,40.824902,-73.88051999999999
Bronx,1175 GERARD AVENUE                       ,10452,233,4,169,40.834643,-73.9210421
Bronx,416 EAST 154TH STREET                    ,10455,185,8,294,40.819147,-73.915559
Bronx,79 PELL PLACE                            ,10464,60,8,244,40.842422,-73.7860819
Bronx,410 EAST 237 STREET                      ,10470,108,2,203,40.899132,-73.86453
Bronx,1919 MCGRAW AVE                          ,10462,24,8,925,40.83474,-73.8613948
Bronx,3063 EDSON AVENUE                        ,10469,51,8,756,40.873542,-73.83595199999999
Bronx,272 REYNOLDS AVENUE                      ,10465,62,9,659,40.820557,-73.80863099999999
Bronx,3530 HENRY HUDSON PKWY 9E               ,10463,55,7,318,40.8864541,-73.91172089999999
Bronx,3215 ARLINGTON AVENUE 3C                ,10463,65,7,395,40.8846993,-73.9124985
Bronx,736 EAST 133 STREET                      ,10454,160,2,14,40.801178,-73.9147519
Bronx,3921 CARPENTER AVENUE                    ,10466,164,5,327,40.8875559,-73.864699
Bronx,484 CLAREMONT PARKWAY                    ,10457,291,1,475,40.838389,-73.902267
Bronx,1120 CLAY AVENUE                         ,10456,245,4,181,40.8299675,-73.9116877
Bronx,3206 FAIRFIELD AVENUE 2D                ,10463,11,9,958,40.884435,-73.91333
Bronx,3323 MERRITT AVENUE                      ,10475,185,9,875,40.8818,-73.826858
Bronx,3285 GRACE AVENUE                        ,10469,144,7,467,40.8766835,-73.8385618
Bronx,1562 UNIONPORT ROAD                      ,10462,227,2,462,40.841166,-73.855093
Bronx,1974 LAFONTAINE AVENUE 4A               ,10457,145,7,818,40.846971,-73.89372399999999
Bronx,640 WEST 239TH STREET 1C                ,10463,174,5,486,40.8895827,-73.9125468
Bronx,1548 MCDONALD STREET                     ,10461,70,3,11,40.854975,-73.842478
Bronx,442 EAST 142ND STREET                    ,10454,13,9,380,40.810857,-73.91977
Bronx,2853 DEWEY AVENUE                        ,10465,199,9,887,40.8219939,-73.820937
Bronx,5430 NETHERLAND C22                     ,10471,278,6,482,40.9024273,-73.9068392
Bronx,2509 HOFFMAN STREET                      ,10458,295,1,949,40.858616,-73.88649900000001
Bronx,2730 SCHURZ AVENUE                       ,10465,185,3,848,40.813401,-73.820989
Bronx,1113 QUINCY AVENUE                       ,10465,78,7,373,40.83174,-73.83129799999999
Bronx,WESTCHESTER AVENUE                       ,10455,66,4,687,40.8311052,-73.86908009999999
Bronx,583 COURTLANDT AVENUE                    ,10451,256,0,934,40.8175381,-73.91931389999999
Bronx,3305 FENTON AVENUE                       ,10469,21,6,373,40.8742779,-73.847291
Bronx,3333 HENRY HUDSON PARKWAY 12M           ,10463,165,2,801,40.885406,-73.91447099999999
Bronx,165 EAST BURNSIDE AVENUE                 ,10453,133,9,802,40.8529895,-73.90422459999999
Bronx,2545 UNIVERSITY AVENUE                   ,10468,273,4,368,40.8668679,-73.902616
Bronx,3555 MC OWEN AVENUE                      ,10475,3,4,60,40.888652,-73.819986
Bronx,5234 BLACKSTONE AVENUE                   ,10471,219,5,909,40.9005129,-73.909348
Bronx,1114 ST. LAWRENCE AVENUE                 ,10472,251,5,685,40.82828,-73.8661879
Bronx,1133 LONGFELLOW AVENUE                   ,10459,257,2,756,40.8272369,-73.888222
Bronx,758 KELLY STREET                         ,10455,143,9,884,40.8173959,-73.89867559999999
Bronx,364 EAST 194 STREET                      ,10458,14,0,581,40.86353,-73.8907
